[
  {
    "id": "2nd-story-brewing-company-philadelphia",
    "name": "2nd Story Brewing Company",
    "brewery_type": "brewpub",
    "street": "117 Chestnut St Frnt",
    "address_2": null,
    "address_3": null,
    "city": "Philadelphia",
    "state": "Pennsylvania",
    "county_province": null,
    "postal_code": "19106-4700",
    "country": "United States",
    "longitude": null,
    "latitude": null,
    "phone": "2673145770",
    "website_url": "http://www.2ndstorybrewing.com/",
    "updated_at": "2022-11-11T05:07:58.723Z",
    "created_at": "2022-11-11T05:07:58.723Z"
  },
  {
    "id": "attic-brewing-philadelphia",
    "name": "Attic Brewing",
    "brewery_type": "planning",
    "street": null,
    "address_2": null,
    "address_3": null,
    "city": "Philadelphia",
    "state": "Pennsylvania",
    "county_province": null,
    "postal_code": "19144-3603",
    "country": "United States",
    "longitude": null,
    "latitude": null,
    "phone": "7082047376",
    "website_url": null,
    "updated_at": "2022-11-11T05:07:58.723Z",
    "created_at": "2022-11-11T05:07:58.723Z"
  },
  {
    "id": "bar-hygge-brewery-techne-philadelphia",
    "name": "Bar Hygge / Brewery Techne",
    "brewery_type": "brewpub",
    "street": "1720 Fairmount Ave",
    "address_2": null,
    "address_3": null,
    "city": "Philadelphia",
    "state": "Pennsylvania",
    "county_province": null,
    "postal_code": "19130-2858",
    "country": "United States",
    "longitude": "-75.16567302",
    "latitude": "39.96707286",
    "phone": null,
    "website_url": null,
    "updated_at": "2022-11-11T05:07:58.723Z",
    "created_at": "2022-11-11T05:07:58.723Z"
  },
  {
    "id": "brewery-ars-philadelphia",
    "name": "Brewery ARS",
    "brewery_type": "micro",
    "street": "1927-29 W Passyunk Ave",
    "address_2": null,
    "address_3": null,
    "city": "Philadelphia",
    "state": "Pennsylvania",
    "county_province": null,
    "postal_code": "19145-3620",
    "country": "United States",
    "longitude": null,
    "latitude": null,
    "phone": "2159605173",
    "website_url": "http://breweryars.com",
    "updated_at": "2022-11-11T05:07:58.723Z",
    "created_at": "2022-11-11T05:07:58.723Z"
  },
  {
    "id": "crime-and-punishment-brewing-company-philadelphia",
    "name": "Crime & Punishment Brewing Company",
    "brewery_type": "brewpub",
    "street": "2711 W Girard Ave",
    "address_2": null,
    "address_3": null,
    "city": "Philadelphia",
    "state": "Pennsylvania",
    "county_province": null,
    "postal_code": "19130-1212",
    "country": "United States",
    "longitude": "-75.1808422",
    "latitude": "39.9743646",
    "phone": "2152352739",
    "website_url": "http://www.crimeandpunishmentbrewery.com",
    "updated_at": "2022-11-11T05:07:58.723Z",
    "created_at": "2022-11-11T05:07:58.723Z"
  },
  {
    "id": "dock-street-brewery-philadelphia",
    "name": "Dock Street Brewery",
    "brewery_type": "brewpub",
    "street": "701 S 50th St Fl 1",
    "address_2": null,
    "address_3": null,
    "city": "Philadelphia",
    "state": "Pennsylvania",
    "county_province": null,
    "postal_code": "19143-1689",
    "country": "United States",
    "longitude": null,
    "latitude": null,
    "phone": "2157262337",
    "website_url": "http://www.dockstreetbeer.com",
    "updated_at": "2022-11-11T05:07:58.723Z",
    "created_at": "2022-11-11T05:07:58.723Z"
  },
  {
    "id": "dock-street-brewing-co-philadelphia",
    "name": "Dock Street Brewing Co",
    "brewery_type": "planning",
    "street": null,
    "address_2": null,
    "address_3": null,
    "city": "Philadelphia",
    "state": "Pennsylvania",
    "county_province": null,
    "postal_code": "19146",
    "country": "United States",
    "longitude": null,
    "latitude": null,
    "phone": null,
    "website_url": null,
    "updated_at": "2022-11-11T05:07:58.723Z",
    "created_at": "2022-11-11T05:07:58.723Z"
  },
  {
    "id": "earth-bread-brewery-philadelphia",
    "name": "Earth Bread + Brewery",
    "brewery_type": "brewpub",
    "street": "7136 Germantown Ave",
    "address_2": null,
    "address_3": null,
    "city": "Philadelphia",
    "state": "Pennsylvania",
    "county_province": null,
    "postal_code": "19119-1843",
    "country": "United States",
    "longitude": "-75.1903546",
    "latitude": "40.0591996",
    "phone": "2152426666",
    "website_url": "http://www.earthbreadbrewery.com",
    "updated_at": "2022-11-11T05:07:58.723Z",
    "created_at": "2022-11-11T05:07:58.723Z"
  },
  {
    "id": "evil-genius-beer-co-philadelphia",
    "name": "Evil Genius Beer Co",
    "brewery_type": "micro",
    "street": "1727 N Front St",
    "address_2": null,
    "address_3": null,
    "city": "Philadelphia",
    "state": "Pennsylvania",
    "county_province": null,
    "postal_code": "19122-3203",
    "country": "United States",
    "longitude": "-75.13401561",
    "latitude": "39.97578018",
    "phone": "2154256820",
    "website_url": "http://www.evilgeniusbeer.com",
    "updated_at": "2022-11-11T05:07:58.723Z",
    "created_at": "2022-11-11T05:07:58.723Z"
  },
  {
    "id": "fermentery-form-philadelphia",
    "name": "Fermentery Form",
    "brewery_type": "micro",
    "street": "161 Cecil B Moore Ave",
    "address_2": null,
    "address_3": null,
    "city": "Philadelphia",
    "state": "Pennsylvania",
    "county_province": null,
    "postal_code": "19122-3234",
    "country": "United States",
    "longitude": "-75.136886",
    "latitude": "39.976092",
    "phone": "2675183676",
    "website_url": "http://www.fermenteryform.com",
    "updated_at": "2022-11-11T05:07:58.723Z",
    "created_at": "2022-11-11T05:07:58.723Z"
  },
  {
    "id": "fishtown-brewing-co-philadelphia",
    "name": "Fishtown Brewing Co",
    "brewery_type": "brewpub",
    "street": "1101 Frankford Ave",
    "address_2": null,
    "address_3": null,
    "city": "Philadelphia",
    "state": "Pennsylvania",
    "county_province": null,
    "postal_code": "19125-4153",
    "country": "United States",
    "longitude": "-75.0159588",
    "latitude": "40.0460129",
    "phone": "2159901396",
    "website_url": "http://fishtownbrewpub.com",
    "updated_at": "2022-11-11T05:07:58.723Z",
    "created_at": "2022-11-11T05:07:58.723Z"
  },
  {
    "id": "goose-island-philadelphia-philadelphia",
    "name": "Goose Island Philadelphia",
    "brewery_type": "brewpub",
    "street": "1002 Canal St",
    "address_2": null,
    "address_3": null,
    "city": "Philadelphia",
    "state": "Pennsylvania",
    "county_province": null,
    "postal_code": "19123",
    "country": "United States",
    "longitude": "-75.13506341",
    "latitude": "39.9648491",
    "phone": null,
    "website_url": null,
    "updated_at": "2022-11-11T05:07:58.723Z",
    "created_at": "2022-11-11T05:07:58.723Z"
  },
  {
    "id": "iron-hill-brewery-and-restaurant-chestnut-hill-philadelphia",
    "name": "Iron Hill Brewery & Restaurant - Chestnut Hill",
    "brewery_type": "brewpub",
    "street": "8400 Germantown Ave",
    "address_2": null,
    "address_3": null,
    "city": "Philadelphia",
    "state": "Pennsylvania",
    "county_province": null,
    "postal_code": "19118-3328",
    "country": "United States",
    "longitude": "-75.205095",
    "latitude": "40.075132",
    "phone": "2159485600",
    "website_url": "http://www.ironhillbrewery.com",
    "updated_at": "2022-11-11T05:07:58.723Z",
    "created_at": "2022-11-11T05:07:58.723Z"
  },
  {
    "id": "kensington-barrel-project-philadelphia",
    "name": "Kensington Barrel Project",
    "brewery_type": "planning",
    "street": null,
    "address_2": null,
    "address_3": null,
    "city": "Philadelphia",
    "state": "Pennsylvania",
    "county_province": null,
    "postal_code": "19134",
    "country": "United States",
    "longitude": null,
    "latitude": null,
    "phone": "16199488705",
    "website_url": "http://www.kensingtonbarrelproject.com",
    "updated_at": "2022-11-11T05:07:58.723Z",
    "created_at": "2022-11-11T05:07:58.723Z"
  },
  {
    "id": "love-city-brewing-company-philadelphia",
    "name": "Love City Brewing Company",
    "brewery_type": "micro",
    "street": "1016 Buttonwood St",
    "address_2": null,
    "address_3": null,
    "city": "Philadelphia",
    "state": "Pennsylvania",
    "county_province": null,
    "postal_code": "19123-3703",
    "country": "United States",
    "longitude": "-75.15509414",
    "latitude": "39.96067782",
    "phone": null,
    "website_url": "http://www.lovecitybrewing.com",
    "updated_at": "2022-11-11T05:07:58.723Z",
    "created_at": "2022-11-11T05:07:58.723Z"
  },
  {
    "id": "manayunk-brewing-co-and-restaurant-philadelphia",
    "name": "Manayunk Brewing Co & Restaurant",
    "brewery_type": "brewpub",
    "street": "4120 Main St",
    "address_2": null,
    "address_3": null,
    "city": "Philadelphia",
    "state": "Pennsylvania",
    "county_province": null,
    "postal_code": "19127-1618",
    "country": "United States",
    "longitude": "-75.2189308",
    "latitude": "40.0223235",
    "phone": "2154828220",
    "website_url": "http://www.manayunkbrewery.com",
    "updated_at": "2022-11-11T05:07:58.723Z",
    "created_at": "2022-11-11T05:07:58.723Z"
  },
  {
    "id": "philadelphia-brewing-co-philadelphia",
    "name": "Philadelphia Brewing Co",
    "brewery_type": "micro",
    "street": "2423 Amber St",
    "address_2": null,
    "address_3": null,
    "city": "Philadelphia",
    "state": "Pennsylvania",
    "county_province": null,
    "postal_code": "19125-1606",
    "country": "United States",
    "longitude": "-75.12769991",
    "latitude": "39.98282736",
    "phone": "2154272739",
    "website_url": "http://www.philadelphiabrewing.com",
    "updated_at": "2022-11-11T05:07:58.723Z",
    "created_at": "2022-11-11T05:07:58.723Z"
  },
  {
    "id": "point-breeze-brewing-philadelphia",
    "name": "Point Breeze Brewing",
    "brewery_type": "micro",
    "street": "1225 S 28th St",
    "address_2": null,
    "address_3": null,
    "city": "Philadelphia",
    "state": "Pennsylvania",
    "county_province": null,
    "postal_code": "19146-",
    "country": "United States",
    "longitude": "-75.1900898",
    "latitude": "39.9382866",
    "phone": null,
    "website_url": "http://www.pointbreezebrewing.com",
    "updated_at": "2022-11-11T05:07:58.723Z",
    "created_at": "2022-11-11T05:07:58.723Z"
  },
  {
    "id": "saint-benjamin-brewing-co-philadelphia",
    "name": "Saint Benjamin Brewing Co",
    "brewery_type": "micro",
    "street": "1710 N 5th St",
    "address_2": null,
    "address_3": null,
    "city": "Philadelphia",
    "state": "Pennsylvania",
    "county_province": null,
    "postal_code": "19122-2909",
    "country": "United States",
    "longitude": "-75.1475016",
    "latitude": "39.9562965",
    "phone": null,
    "website_url": null,
    "updated_at": "2022-11-11T05:07:58.723Z",
    "created_at": "2022-11-11T05:07:58.723Z"
  },
  {
    "id": "second-district-brewing-co-philadelphia",
    "name": "Second District Brewing Co.",
    "brewery_type": "brewpub",
    "street": "1939 S. Bancroft St.",
    "address_2": null,
    "address_3": null,
    "city": "Philadelphia",
    "state": "Pennsylvania",
    "county_province": null,
    "postal_code": "19145",
    "country": "United States",
    "longitude": "-75.17297324",
    "latitude": "39.92679584",
    "phone": "2155755900",
    "website_url": "http://seconddistrictbrewing.com",
    "updated_at": "2022-11-11T05:07:58.723Z",
    "created_at": "2022-11-11T05:07:58.723Z"
  },
  {
    "id": "urban-village-brewing-company-philadelphia",
    "name": "Urban Village Brewing Company",
    "brewery_type": "brewpub",
    "street": "1001 N 2nd St",
    "address_2": null,
    "address_3": null,
    "city": "Philadelphia",
    "state": "Pennsylvania",
    "county_province": null,
    "postal_code": "19123-1612",
    "country": "United States",
    "longitude": "-75.1400237",
    "latitude": "39.9662701",
    "phone": "2676871961",
    "website_url": "http://www.urbanvillagebrewing.com",
    "updated_at": "2022-11-11T05:07:58.723Z",
    "created_at": "2022-11-11T05:07:58.723Z"
  },
  {
    "id": "wissahickon-brewing-company-philadelphia",
    "name": "Wissahickon Brewing Company",
    "brewery_type": "micro",
    "street": "3705 W School House Ln",
    "address_2": null,
    "address_3": null,
    "city": "Philadelphia",
    "state": "Pennsylvania",
    "county_province": null,
    "postal_code": "19129-1738",
    "country": "United States",
    "longitude": "-75.20047033",
    "latitude": "40.013655",
    "phone": "2154838833",
    "website_url": "http://www.wissahickonbrew.com",
    "updated_at": "2022-11-11T05:07:58.723Z",
    "created_at": "2022-11-11T05:07:58.723Z"
  },
  {
    "id": "yards-brewing-co-philadelphia",
    "name": "Yards Brewing Co",
    "brewery_type": "regional",
    "street": "901 N Delaware Ave",
    "address_2": null,
    "address_3": null,
    "city": "Philadelphia",
    "state": "Pennsylvania",
    "county_province": null,
    "postal_code": "19123-3110",
    "country": "United States",
    "longitude": "-75.1324016",
    "latitude": "39.9655175",
    "phone": "2156342600",
    "website_url": "http://www.yardsbrewing.com",
    "updated_at": "2022-11-11T05:07:58.723Z",
    "created_at": "2022-11-11T05:07:58.723Z"
  }
]